City_ID,City,Lat,Lng,Max Temp,Humidity,Cloudiness,Wind Speed,Country,Date
0,albany,42.6001,-73.9662,5.360000000000014,68,78,1.79,US,1729049637
1,port-aux-francais,-49.35,70.2167,0.6000000000000227,70,87,16.18,TF,1729049639
2,adamstown,-25.066,-130.1015,21.27000000000004,88,98,6.71,PN,1729049640
3,grytviken,-54.2811,-36.5092,3.07000000000005,77,100,2.93,GS,1729049641
4,ushuaia,-54.8,-68.3,5.810000000000002,61,40,11.32,AR,1729049518
5,puerto natales,-51.7236,-72.4875,3.480000000000018,92,23,1.8,CL,1729049464
6,punta arenas,-53.15,-70.9167,2.0600000000000023,80,0,4.12,CL,1729049644
7,waitangi,-43.9535,-176.5597,9.900000000000034,81,72,2.68,NZ,1729049645
8,blackmans bay,-43.0167,147.3167,22.07000000000005,40,79,2.24,AU,1729049646
9,papatowai,-46.5619,169.4708,10.03000000000003,59,7,3.14,NZ,1729049648
10,invercargill,-46.4,168.35,13.340000000000032,58,1,0.89,NZ,1729049649
11,bredasdorp,-34.5322,20.0403,10.660000000000025,90,0,2.45,ZA,1729049650
12,port elizabeth,-33.918,25.5701,15.170000000000016,82,0,11.32,ZA,1729049651
13,edinburgh of the seven seas,-37.0676,-12.3116,11.650000000000034,65,3,3.8,SH,1729049652
14,stanley,54.868,-1.6985,11.82000000000005,97,100,3.09,GB,1729049653
15,port lincoln,-34.7333,135.8667,21.260000000000048,70,49,4.67,AU,1729049654
16,dunedin,-45.8742,170.5036,11.560000000000002,67,0,1.34,NZ,1729049655
17,puerto deseado,-47.7503,-65.8938,14.090000000000032,47,95,4.52,AR,1729049656
18,christchurch,-43.5333,172.6333,15.230000000000018,58,20,3.09,NZ,1729049508
19,hermanus,-34.4187,19.2345,12.240000000000009,81,0,5.75,ZA,1729049659
20,margaret river,-33.95,115.0667,17.629999999999995,64,100,6.14,AU,1729049660
21,thames,-37.1333,175.5333,16.230000000000018,60,100,2.39,NZ,1729049661
22,port alfred,-33.5906,26.891,14.54000000000002,82,12,4.02,ZA,1729049662
23,scottburgh,-30.2867,30.7532,16.25,69,97,2.18,ZA,1729049663
24,constantia,44.1833,28.65,10.390000000000043,78,75,8.92,RO,1729049664
25,saldanha,-33.0117,17.9442,12.03000000000003,75,1,6.88,ZA,1729049665
26,tolanaro,-25.0319,46.9987,19.04000000000002,94,75,4.12,MG,1729049667
27,kerikeri,-35.2268,173.9474,15.150000000000034,71,100,2.5,NZ,1729049668
28,saint-philippe,-21.3585,55.7679,23.29000000000002,76,3,1.22,RE,1729049669
29,tsiombe,-25.3,45.4833,19.420000000000016,77,94,5.58,MG,1729049670
30,avarua,-21.2078,-159.775,24.03000000000003,57,75,3.09,CK,1729049671
31,lebu,-37.6167,-73.65,9.920000000000016,84,99,2.15,CL,1729049672
32,quellon,-43.1167,-73.6167,7.57000000000005,85,56,1.42,CL,1729049673
33,margate,51.3813,1.3862,13.82000000000005,89,98,0.89,GB,1729049461
34,port mathurin,-19.6833,63.4167,23.120000000000005,75,97,6.78,MU,1729049676
35,ancud,-41.8697,-73.8203,7.970000000000027,83,91,1.81,CL,1729049677
36,queenstown,-31.8976,26.8753,5.770000000000039,84,3,0.43,ZA,1729049678
37,west island,-12.1568,96.8225,27.99000000000001,78,40,6.17,CC,1729049679
38,port macquarie,-31.4333,152.9167,16.150000000000034,90,100,1.05,AU,1729049680
39,villa gesell,-37.2639,-56.973,13.189999999999998,93,31,5.97,AR,1729049681
40,arraial do cabo,-22.9661,-42.0278,21.450000000000045,84,100,7.79,BR,1729049682
41,kawerau,-38.1,176.7,17.49000000000001,53,50,1.79,NZ,1729049683
42,mount gambier,-37.8333,140.7667,25.629999999999995,48,100,1.3,AU,1729049685
43,laguna,38.421,-121.4238,22.08000000000004,62,0,2.57,US,1729049686
44,san jose de jachal,-30.2406,-68.7469,21.689999999999998,55,60,0.64,AR,1729049687
45,hermoso campo,-27.6082,-61.3444,20.53000000000003,91,15,2.36,AR,1729049618
46,ta`u,-14.2336,-169.5144,26.5,71,65,8.06,AS,1729049689
47,jamestown,42.097,-79.2353,6.1200000000000045,88,100,4.12,US,1729049690
48,tocopilla,-22.092,-70.1979,16.58000000000004,78,3,1.14,CL,1729049691
49,san julian,21.0167,-102.1667,15.810000000000002,49,1,2.88,MX,1729049692
50,afaahiti,-17.75,-149.2833,23.629999999999995,73,39,2.71,PF,1729049694
51,saint-pierre,-21.3393,55.4781,22.82000000000005,64,0,2.06,RE,1729049695
52,andovoranto,-18.95,49.1,23.379999999999995,80,54,2.48,MG,1729049696
53,beira,-19.8436,34.8389,22.05000000000001,88,75,2.57,MZ,1729049697
54,oruro,-17.9833,-67.15,8.450000000000045,60,96,5.76,BO,1729049698
55,lichtenburg,-26.152,26.1597,12.890000000000043,87,85,6.75,ZA,1729049700
56,tadine,-21.55,167.8833,21.640000000000043,86,100,6.26,NC,1729049702
57,georgetown,5.4112,100.3354,27.970000000000027,74,40,3.6,MY,1729049582
58,sao joao da barra,-21.6403,-41.0511,22.640000000000043,80,100,3.94,BR,1729049704
59,vila velha,-20.3297,-40.2925,22.189999999999998,87,75,1.03,BR,1729049705
60,challapata,-18.9,-66.7667,7.980000000000018,63,99,7.74,BO,1729049706
61,callao,-12.0667,-77.15,18.730000000000018,77,100,6.17,PE,1729049599
62,yura,-16.2522,-71.6797,13.29000000000002,30,0,0.0,PE,1729049708
63,kingston,17.997,-76.7936,25.53000000000003,89,75,9.26,JM,1729049481
64,mahanoro,-19.9,48.8,23.950000000000045,74,14,1.15,MG,1729049711
65,levuka,50.1834,-105.4011,14.840000000000032,38,97,4.03,CA,1729049712
66,barra do bugres,-15.0725,-57.1811,22.400000000000034,88,100,3.26,BR,1729049713
67,kone,-21.0595,164.8658,25.28000000000003,66,99,2.04,NC,1729049715
68,newman,37.3138,-121.0208,21.700000000000045,65,0,2.39,US,1729049716
69,suva,-18.1416,178.4415,26.710000000000036,78,100,3.6,FJ,1729049718
70,daru,-9.0763,143.2092,27.910000000000025,74,48,4.13,PG,1729049719
71,luba,3.4568,8.5547,25.560000000000002,84,100,2.19,GQ,1729049720
72,abuja,9.0574,7.4898,22.08000000000004,93,59,0.8,NG,1729049721
73,raja,8.4596,25.678,21.110000000000014,96,100,0.89,SS,1729049722
74,ugoofaaru,5.6667,73.0,27.910000000000025,78,76,6.41,MV,1729049724
75,song cau,13.45,109.2167,28.33000000000004,69,100,4.04,VN,1729049725
76,santarem,-2.4431,-54.7083,29.07000000000005,74,0,3.09,BR,1729049728
77,malinyi,-8.9333,36.1333,24.670000000000016,63,65,1.35,TZ,1729049729
78,manta,-0.95,-80.7333,23.879999999999995,78,40,4.17,EC,1729049731
79,puerto ayora,-0.7393,-90.3518,20.860000000000014,95,75,3.58,EC,1729049732
80,mogadishu,2.0371,45.3438,26.110000000000014,86,42,4.81,SO,1729049733
81,cobija,-11.0267,-68.7692,26.5,49,70,1.4,BO,1729049734
82,acapulco de juarez,16.8634,-99.8901,27.900000000000034,83,40,3.6,MX,1729049735
83,menongue,-14.6585,17.691,17.74000000000001,46,90,2.26,AO,1729049737
84,enewetak,11.3474,162.3373,27.010000000000048,83,100,3.52,MH,1729049738
85,tual,-5.6667,132.75,27.710000000000036,76,68,5.18,ID,1729049739
86,sampit,-2.5333,112.95,33.64000000000004,49,94,1.11,ID,1729049740
87,kolonia town,6.964,158.206,32.06,70,75,5.66,FM,1729049741
88,coahuayana de hidalgo,18.7,-103.6583,25.30000000000001,92,9,1.42,MX,1729049743
89,trincomalee,8.5711,81.2335,28.810000000000002,72,100,7.31,LK,1729049676
90,jayapura,-2.5333,140.7,32.660000000000025,76,89,3.0,ID,1729049746
91,san andres,12.5847,-81.7006,27.010000000000048,83,20,1.54,CO,1729049702
92,axim,4.8699,-2.2405,24.670000000000016,87,57,1.63,GH,1729049748
93,hadibu,12.65,54.0333,26.33000000000004,74,99,1.71,YE,1729049749
94,koungou,-12.7336,45.2042,25.24000000000001,80,30,2.56,YT,1729049750
95,kavieng,-2.5744,150.7967,28.660000000000025,76,88,3.78,PG,1729049751
96,tucuma,-0.1833,-50.05,26.129999999999995,75,3,3.23,BR,1729049752
97,atafu village,-8.5421,-172.5159,28.670000000000016,72,8,3.28,TK,1729049753
98,wajir,1.7471,40.0573,25.180000000000007,65,90,7.36,KE,1729049754
99,mana,5.6592,-53.7767,26.760000000000048,78,20,3.7,GF,1729049756
100,la passe,45.5549,-0.8967,17.930000000000007,91,90,7.95,FR,1729049757
101,kismayo,-0.3582,42.5454,25.840000000000032,78,14,5.29,SO,1729049758
102,mejit,10.2753,170.8646,28.410000000000025,81,100,7.12,MH,1729049759
103,umm kaddadah,13.6017,26.6876,26.390000000000043,64,93,3.01,SD,1729049760
104,loreto,22.2667,-101.9667,18.52000000000004,42,69,1.57,MX,1729049761
105,vila do maio,15.1333,-23.2167,26.28000000000003,76,98,5.06,CV,1729049762
106,bikenibeu village,1.3673,173.1241,31.980000000000018,66,40,6.17,KI,1729049763
107,remire-montjoly,4.9167,-52.2667,24.02000000000004,94,20,1.03,GF,1729049765
108,hawaiian paradise park,19.5933,-154.9731,26.730000000000018,78,100,2.57,US,1729049766
109,saipan,15.1355,145.701,31.390000000000043,70,40,2.06,MP,1729049767
110,kapa'a,22.0752,-159.319,27.180000000000007,82,20,7.2,US,1729049768
111,utrik,11.2278,169.8474,27.920000000000016,82,97,6.56,MH,1729049771
112,porto novo,6.4965,2.6036,26.900000000000034,89,91,2.12,BJ,1729049773
113,jeddah,21.5169,39.2192,30.920000000000016,48,20,4.12,SA,1729049774
114,pleasanton,37.6624,-121.8747,18.30000000000001,82,0,1.34,US,1729049775
115,ghat,24.9647,10.1728,26.05000000000001,25,2,0.81,LY,1729049776
116,hirara,24.8,125.2833,29.920000000000016,84,75,5.14,JP,1729049778
117,wailua homesteads,22.0669,-159.378,26.439999999999998,81,20,7.2,US,1729049594
118,fuqing,25.725,119.3794,27.390000000000043,67,87,5.72,CN,1729049781
119,nago,26.5881,127.9761,28.720000000000027,75,29,0.45,JP,1729049782
120,gebeit,21.0667,36.3167,25.810000000000002,25,8,1.78,SD,1729049783
121,crane,31.3974,-102.3501,22.879999999999995,21,0,3.93,US,1729049784
122,dakhla,23.6848,-15.958,20.100000000000023,87,16,4.27,EH,1729049785
123,island harbour,50.724,-1.2758,16.129999999999995,73,100,2.68,GB,1729049786
124,al jawf,29.5,38.75,21.350000000000023,29,0,1.48,SA,1729049787
125,saint-francois,46.4154,3.9054,19.25,80,0,3.09,FR,1729049788
126,bhum,18.4667,75.6667,28.5,61,98,4.33,IN,1729049790
127,kuraymah,18.55,31.85,30.57000000000005,18,53,5.45,SD,1729049791
128,nouadhibou,20.931,-17.0347,20.430000000000007,85,37,6.67,MR,1729049792
129,rongelap,11.1635,166.8941,27.689999999999998,82,100,9.02,MH,1729049793
130,fada,7.25,4.0667,22.650000000000034,99,96,0.68,NG,1729049794
131,yung shue wan,22.2333,114.1167,31.30000000000001,63,72,2.24,HK,1729049795
132,cocula,20.3652,-103.8222,18.310000000000002,79,12,1.37,MX,1729049796
133,arvi,20.9833,78.2333,29.110000000000014,70,59,2.16,IN,1729049797
134,marco,25.9726,-81.729,25.010000000000048,92,71,2.48,US,1729049604
135,hong kong,22.2855,114.1577,31.650000000000034,62,65,6.71,HK,1729049617
136,zunyi,27.6867,106.9072,21.420000000000016,65,91,3.23,CN,1729049801
137,sittwe,20.15,92.9,29.0,65,8,0.41,MM,1729049802
138,morant bay,17.8815,-76.4093,27.04000000000002,82,98,3.66,JM,1729049685
139,san patricio,28.017,-97.5169,21.970000000000027,68,0,3.39,US,1729049804
140,leh,34.1667,77.5833,4.930000000000007,26,0,2.57,IN,1729049806
141,charles city,43.0664,-92.6724,3.2200000000000273,70,0,3.09,US,1729049807
142,brigantine,39.4101,-74.3646,10.57000000000005,72,0,3.09,US,1729049809
143,midelt,32.6852,-4.7451,14.970000000000027,79,100,1.91,MA,1729049810
144,qamdo,31.1667,97.2333,5.510000000000048,52,100,0.47,CN,1729049811
145,tabarka,36.9544,8.758,23.360000000000014,60,20,1.03,TN,1729049812
146,nemuro,43.3236,145.575,13.680000000000007,79,100,9.34,JP,1729049706
147,prairie du chien,43.0517,-91.1412,2.0100000000000477,80,0,0.0,US,1729049814
148,long beach,33.767,-118.1892,18.80000000000001,87,75,1.54,US,1729049700
149,nagqu,31.5,92.0,3.5600000000000023,22,3,2.59,CN,1729049816
150,kodiak,57.79,-152.4072,6.730000000000018,70,0,2.06,US,1729049817
151,morehead city,34.7229,-76.726,15.560000000000002,75,15,0.45,US,1729049542
152,alexandroupoli,40.8475,25.8744,8.900000000000034,93,0,0.0,GR,1729049820
153,cine,37.6117,28.0614,13.670000000000016,62,3,0.43,TR,1729049821
154,petropavlovsk-kamchatsky,53.0452,158.6483,8.330000000000041,66,20,7.0,RU,1729049782
155,alta sierra,35.7291,-118.5495,10.220000000000027,55,0,2.27,US,1729049535
156,laghouat,33.8,2.8651,19.120000000000005,70,70,1.44,DZ,1729049824
157,kayenta,36.7278,-110.2546,15.439999999999998,53,91,1.82,US,1729049825
158,turpan,42.9333,89.1667,21.200000000000045,27,100,1.48,CN,1729049827
159,cascais,38.6979,-9.4215,20.28000000000003,86,43,2.68,PT,1729049828
160,spring creek,40.7266,-115.5859,14.379999999999995,22,0,1.44,US,1729049789
161,dalandzadgad,43.5708,104.425,7.460000000000036,59,4,4.75,MN,1729049830
162,bandar-e anzali,37.4727,49.4622,18.060000000000002,87,87,4.07,IR,1729049831
163,ribeira grande,38.5167,-28.7,18.760000000000048,74,82,4.47,PT,1729049832
164,oltinko'l,40.8011,72.1634,11.620000000000005,78,100,3.65,UZ,1729049833
165,orestiada,41.5911,26.3469,13.890000000000043,65,42,1.17,GR,1729049834
166,nantucket,41.2835,-70.0995,9.060000000000002,76,100,11.23,US,1729049815
167,rasht,37.2808,49.5832,17.900000000000034,100,100,0.0,IR,1729049837
168,delijan,33.9905,50.6838,20.310000000000002,24,0,1.56,IR,1729049838
169,mount pearl,47.5166,-52.7813,12.300000000000011,92,20,9.26,CA,1729049839
170,shohimardon,39.9839,71.8028,5.060000000000002,99,100,1.44,UZ,1729049840
171,fuxin,42.0156,121.6589,14.230000000000018,29,0,5.47,CN,1729049841
172,muborak,39.2553,65.1528,10.07000000000005,37,0,4.34,UZ,1729049842
173,longjing,42.7714,129.4233,11.800000000000011,34,0,1.34,CN,1729049843
174,berriane,32.8265,3.7669,22.100000000000023,55,80,1.48,DZ,1729049845
175,el granada,37.5027,-122.4694,17.879999999999995,87,100,5.66,US,1729049846
176,rumoi,43.9344,141.6428,13.220000000000027,48,30,5.82,JP,1729049847
177,smirnovo,54.5125,69.4222,-0.25,77,20,1.66,KZ,1729049848
178,zeya,53.75,127.2667,2.2000000000000455,34,100,1.24,RU,1729049849
179,bethel,41.3712,-73.414,6.480000000000018,79,0,3.09,US,1729049850
180,nikolayevsk-on-amure,53.1406,140.73,3.8600000000000136,67,46,6.78,RU,1729049851
181,novosibirsk,55.0411,82.9344,-2.3899999999999864,80,0,1.0,RU,1729049853
182,tsetserleg,47.475,101.4542,1.0500000000000114,86,95,2.0,MN,1729049854
183,keflavik,64.0049,-22.5624,4.240000000000009,100,40,4.12,IS,1729049855
184,moyynkum,44.2914,72.9469,6.150000000000034,59,91,5.73,KZ,1729049856
185,anadyr,64.75,177.4833,1.2800000000000296,86,0,1.0,RU,1729049857
186,chernyshevsk,52.5243,117.0174,3.4500000000000455,32,19,5.17,RU,1729049858
187,semey,50.4111,80.2275,-0.8799999999999955,93,100,0.0,KZ,1729049859
188,qaqortoq,60.7167,-46.0333,0.26000000000004775,81,38,0.55,GL,1729049861
189,traverse city,44.7631,-85.6206,9.04000000000002,65,100,5.66,US,1729049862
190,tralee,52.2704,-9.7026,13.520000000000039,98,62,2.64,IE,1729049658
191,thompson,55.7435,-97.8558,5.090000000000032,75,75,2.57,CA,1729049864
192,sadovoye,47.7764,44.5089,10.28000000000003,89,100,4.73,RU,1729049865
193,kirensk,57.7853,108.1119,-1.8700000000000045,93,100,6.37,RU,1729049866
194,thunder bay,48.4001,-89.3168,-0.009999999999990905,74,0,3.6,CA,1729049574
195,sitka,57.0531,-135.33,6.860000000000014,90,100,2.36,US,1729049593
196,magadan,59.5667,150.8,3.8799999999999955,97,100,5.74,RU,1729049869
197,happy valley-goose bay,53.3168,-60.3315,2.170000000000016,93,100,5.14,CA,1729049871
198,onguday,50.75,86.15,4.090000000000032,76,82,1.21,RU,1729049872
199,horta,38.5333,-28.6333,18.340000000000032,74,87,4.47,PT,1729049660
200,havre,49.5833,0.3333,16.870000000000005,94,100,7.2,FR,1729049874
201,zheleznogorsk,52.331,35.3711,4.170000000000016,93,83,3.14,RU,1729049875
202,glace bay,46.1969,-59.957,9.32000000000005,87,75,3.6,CA,1729049876
203,dryden,49.7833,-92.7503,3.160000000000025,81,0,3.09,CA,1729049877
204,undurkhaan,47.3194,110.6556,2.4700000000000273,40,2,3.88,MN,1729049878
205,skara,58.3866,13.4384,2.2800000000000296,95,22,1.96,SE,1729049880
206,kapuskasing,49.4169,-82.4331,2.0500000000000114,93,100,5.14,CA,1729049881
207,yukhnov,54.7444,35.2297,2.7000000000000455,96,37,2.2,RU,1729049882
208,ketchikan,55.3422,-131.6461,8.260000000000048,93,100,0.0,US,1729049883
209,xilin hot,43.9667,116.0333,13.54000000000002,45,55,4.88,CN,1729049884
210,la ronge,55.1001,-105.2842,7.140000000000043,70,40,1.54,CA,1729049885
211,tosontsengel,48.7567,98.2839,-1.089999999999975,82,100,0.62,MN,1729049886
212,charlottetown,46.2352,-63.1267,8.760000000000048,78,75,4.12,CA,1729049887
213,isafjordur,66.0755,-23.124,1.580000000000041,97,100,3.81,IS,1729049889
214,whitehorse,60.7161,-135.0538,1.4300000000000068,86,75,2.06,CA,1729049890
215,vadso,70.0744,29.7487,0.09000000000003183,86,20,4.12,NO,1729049891
216,longyearbyen,78.2186,15.6401,-0.08999999999997499,86,40,1.54,SJ,1729049892
217,bilibino,68.0546,166.4372,-7.310000000000002,90,100,1.28,RU,1729049893
218,verkhnevilyuysk,63.4453,120.3167,-1.8199999999999932,81,100,2.07,RU,1729049894
219,usinsk,65.9939,57.5281,-0.339999999999975,94,100,8.71,RU,1729049895
220,khandyga,62.6667,135.6,-5.329999999999984,78,100,0.9,RU,1729049898
221,badger,64.8,-147.5333,0.1400000000000432,91,100,3.09,US,1729049899
222,sandnessjoen,66.0217,12.6316,10.060000000000002,93,75,9.77,NO,1729049900
223,igarka,67.4667,86.5833,-16.319999999999993,93,20,3.1,RU,1729049901
224,nyurba,63.2842,118.3319,-5.199999999999989,75,100,0.81,RU,1729049902
225,college,64.8569,-147.8028,0.040000000000020464,84,75,3.09,US,1729049903
226,vorgashor,67.5833,63.95,-2.8700000000000045,82,100,4.74,RU,1729049904
227,olonkinbyen,70.9221,-8.7187,0.4000000000000341,85,100,7.22,SJ,1729049905
228,ulsteinvik,62.3432,5.8487,9.860000000000014,65,100,0.45,NO,1729049907
229,ust-nera,64.5667,143.2,-8.46999999999997,89,100,1.58,RU,1729049908
230,tiksi,71.6872,128.8694,-13.569999999999993,88,80,2.83,RU,1729049909
231,hafnarfjordur,64.0671,-21.9377,5.060000000000002,100,75,0.0,IS,1729049910
232,arkhangel'sk,64.5401,40.5433,1.0600000000000023,100,100,3.0,RU,1729049911
233,ilulissat,69.2167,-51.1,-2.9899999999999523,63,100,7.2,GL,1729049912
234,iqaluit,63.7506,-68.5145,-0.14999999999997726,86,75,1.54,CA,1729049913
235,sisimiut,66.9395,-53.6735,-1.6200000000000045,74,84,3.06,GL,1729049914
236,ust-tsilma,65.441,52.1498,2.3100000000000023,97,100,4.52,RU,1729049916
237,aykhal,66.0,111.5,-14.289999999999964,94,100,11.15,RU,1729049917
238,severo-yeniseyskiy,60.3725,93.0408,-5.729999999999961,76,68,4.3,RU,1729049918
239,harstad,68.799,16.5293,4.53000000000003,97,100,6.71,NO,1729049919
240,kem',64.9555,34.5793,2.57000000000005,81,76,5.39,RU,1729049920
241,udachny,66.4167,112.4,-9.939999999999998,93,95,3.67,RU,1729049921
242,janakkala,60.9,24.6,1.6800000000000068,91,52,2.41,FI,1729049922
243,chernyshevskiy,63.0128,112.4714,-10.319999999999993,59,100,3.07,RU,1729049923
244,kristiansund,63.1115,7.732,6.360000000000014,75,75,2.57,NO,1729049925
245,nuuk,64.1835,-51.7216,-0.6599999999999682,74,13,3.6,GL,1729049926
246,alajarvi,63.0,23.8167,3.7100000000000364,87,100,3.24,FI,1729049927
247,dudinka,69.4058,86.1778,-17.349999999999966,97,18,1.97,RU,1729049928
248,aasiaat,68.7098,-52.8699,-6.289999999999964,97,100,3.92,GL,1729049929
249,nar'yan-mar,67.6713,53.087,0.4500000000000455,94,91,6.69,RU,1729049930
250,polyarnyy,69.1989,33.4478,1.8600000000000136,83,7,6.16,RU,1729049931
251,talnakh,69.4865,88.3972,-17.49999999999997,95,37,0.47,RU,1729049932
252,iskateley,67.6803,53.1512,0.4200000000000159,94,92,6.69,RU,1729049934
253,yellowknife,62.456,-114.3525,3.5600000000000023,100,100,3.6,CA,1729049779
254,pico truncado,-46.7949,-67.9573,13.050000000000011,45,98,6.43,AR,1729049936
255,cidreira,-30.1811,-50.2056,18.170000000000016,96,100,2.81,BR,1729049937
256,portland,45.5234,-122.6762,16.450000000000045,90,100,0.89,US,1729049823
257,plettenberg bay,-34.0527,23.3716,12.03000000000003,66,0,2.85,ZA,1729049939
258,oranjemund,-28.55,16.4333,13.560000000000002,89,35,4.5,,1729049940
259,mossel bay,-34.1831,22.146,7.960000000000036,67,0,4.79,ZA,1729049941
260,luderitz,-26.6481,15.1594,12.770000000000039,95,22,2.77,,1729049943
261,rawson,-43.3002,-65.1023,17.160000000000025,48,0,10.8,AR,1729049893
262,minas de marcona,-15.2119,-75.1103,12.800000000000011,84,23,2.89,PE,1729049793
263,cananeia,-25.0147,-47.9267,19.210000000000036,93,100,1.79,BR,1729049946
264,huarmey,-10.0681,-78.1522,17.620000000000005,85,97,3.13,PE,1729049947
265,coquimbo,-29.9533,-71.3436,12.850000000000023,94,100,1.54,CL,1729049948
266,warmbad,-28.45,18.7333,17.340000000000032,45,2,2.43,,1729049950
267,charters towers,-20.1,146.2667,31.79000000000002,27,0,3.58,AU,1729049952
268,flying fish cove,-10.4217,105.6791,27.82000000000005,69,40,6.69,CX,1729049759
269,vohibinany,-17.35,49.0333,24.57000000000005,67,13,1.03,MG,1729049954
270,papao,-17.75,-149.55,25.82000000000005,73,2,3.17,PF,1729049955
271,nsanje,-16.92,35.262,22.400000000000034,81,99,2.59,MW,1729049956
272,walvis bay,-22.9575,14.5053,14.53000000000003,82,22,1.54,,1729049957
273,port augusta,-32.5,137.7667,36.69,21,31,7.63,AU,1729049958
274,nadi,-17.8,177.4167,29.0,65,75,3.09,FJ,1729049959
275,antsiranana,-12.2787,49.2917,24.420000000000016,78,20,3.09,MG,1729049961
276,skeldon,5.8833,-57.1333,25.460000000000036,85,78,2.16,GY,1729049962
277,prachin buri,14.0833,101.6667,31.010000000000048,62,72,1.93,TH,1729049963
278,kolonia,50.9333,6.95,13.870000000000005,86,40,4.12,DE,1729049964
279,puerto ayacucho,5.6639,-67.6236,23.02000000000004,96,97,1.84,VE,1729049965
280,sola,-13.8833,167.55,29.370000000000005,74,100,0.0,VU,1729049966
281,venilale,-8.6431,126.378,30.29000000000002,44,75,1.8,TL,1729049967
282,mwene-ditu,-7.0,23.45,18.730000000000018,93,74,1.02,CD,1729049971
283,pimentel,-6.8367,-79.9342,18.160000000000025,82,0,6.69,PE,1729049972
284,touros,-5.1989,-35.4608,24.5,79,25,5.22,BR,1729049973
285,hithadhoo,-0.6,73.0833,28.77000000000004,72,61,6.07,MV,1729049974
286,fale old settlement,-9.3852,-171.2468,28.33000000000004,72,44,2.43,TK,1729049975
287,matoury,4.8483,-52.3317,23.980000000000018,94,20,1.03,GF,1729049976
288,melekeok village,7.4957,134.6367,31.310000000000002,70,75,2.57,PW,1729049977
289,labuan,5.2767,115.2417,30.200000000000045,79,20,1.54,MY,1729049979
290,harper,4.375,-7.7169,24.480000000000018,89,14,2.46,LR,1729049981
291,arno,60.1167,18.6333,3.340000000000032,89,13,4.81,SE,1729049982
292,kilindoni,-7.9139,39.6668,25.32000000000005,75,14,2.41,TZ,1729049983
293,yaren,-0.5472,166.916,28.03000000000003,80,12,5.95,NR,1729049984
294,kadugli,11.0167,29.7167,22.340000000000032,92,88,1.35,SD,1729049985
295,port blair,11.6667,92.75,31.02000000000004,74,40,2.06,IN,1729049986
296,petauke,-14.2426,31.3253,19.129999999999995,75,99,4.84,ZM,1729049988
297,kavaratti,10.5669,72.642,27.03000000000003,80,100,4.46,IN,1729049990
298,holualoa,19.6228,-155.9522,26.420000000000016,82,40,3.09,US,1729049838
299,pangoa,-12.1167,-73.0,19.900000000000034,98,41,1.42,PE,1729049992
300,tari,-11.1105,14.3559,17.060000000000002,86,16,0.55,AO,1729049993
301,barclayville,4.6797,-8.2339,23.970000000000027,93,20,1.32,LR,1729049994
302,anton lizardo,19.05,-95.9833,26.120000000000005,83,11,2.79,MX,1729049996
303,hamilton,39.1834,-84.5333,5.610000000000014,90,0,0.45,US,1729049789
304,shimoda,34.6667,138.95,24.49000000000001,78,100,3.85,JP,1729049998
305,road town,18.4167,-64.6167,28.49000000000001,65,52,6.63,VG,1729049931
306,venustiano carranza,19.43,-99.0992,19.52000000000004,37,75,4.12,MX,1729050000
307,nguigmi,14.2495,13.1092,28.879999999999995,22,100,1.86,NE,1729050002
308,as sulayyil,20.4607,45.5779,25.100000000000023,30,1,2.77,SA,1729050003
309,lionel town,17.8101,-77.2406,26.410000000000025,84,100,2.82,JM,1729050004
310,hasaki,35.7333,140.8333,25.5,72,100,5.05,JP,1729050006
311,codrington,-38.2667,141.9667,25.110000000000014,51,96,4.44,AU,1729050007
312,al kharijah,25.4514,30.5464,22.900000000000034,47,0,3.24,EG,1729050008
313,mazatlan,23.2167,-106.4167,29.950000000000045,74,20,0.45,MX,1729050009
314,bacalar,18.6667,-88.3833,23.840000000000032,95,42,1.01,MX,1729050010
315,pitiquito,30.7,-112.0833,24.600000000000023,38,0,1.35,MX,1729050011
316,hilo,19.7297,-155.09,26.850000000000023,77,100,2.57,US,1729049778
317,lihue,21.9789,-159.3672,26.77000000000004,69,20,7.2,US,1729050013
318,fortuna,40.5982,-124.1573,15.520000000000039,94,100,0.0,US,1729050016
319,arhavi,41.3492,41.3069,17.970000000000027,84,73,0.04,TR,1729050018
320,yulinshi,38.2906,109.7494,17.57000000000005,58,100,9.66,CN,1729050019
321,sukumo,32.9333,132.7333,26.150000000000034,78,86,0.26,JP,1729050021
322,la puebla de almoradiel,39.5986,-3.1178,17.30000000000001,70,100,7.72,ES,1729050022
323,sinan,34.8262,126.1086,19.54000000000002,80,100,7.67,KR,1729050023
324,hotan,37.0997,79.9269,19.650000000000034,20,72,2.53,CN,1729050025
325,shengli,37.4564,118.4856,22.110000000000014,41,0,2.91,CN,1729050026
326,damghan,36.1683,54.348,16.74000000000001,55,0,0.24,IR,1729050027
327,shevchenko,48.5,35.0,9.200000000000045,76,82,2.44,UA,1729050028
328,quchan,37.106,58.5095,10.980000000000018,75,4,2.44,IR,1729050029
329,karak city,31.1637,35.762,17.810000000000002,71,0,0.69,JO,1729050030
330,nahiyat al fuhud,30.9697,46.7228,29.379999999999995,19,0,2.9,IQ,1729050031
331,nurdagi,37.1773,36.7419,17.660000000000025,86,96,1.14,TR,1729050033
332,nazare,-13.035,-39.0144,21.640000000000043,99,99,1.33,BR,1729050034
333,es castell,39.8795,4.2854,22.379999999999995,83,0,3.6,ES,1729050035
334,hancheng,32.5186,112.3522,24.49000000000001,60,55,2.88,CN,1729050036
335,vilyuchinsk,52.9306,158.4028,9.150000000000034,79,65,3.46,RU,1729050037
336,shumen,43.2706,26.9229,11.180000000000007,78,83,3.3,BG,1729050038
337,evansville,37.9748,-87.5558,8.360000000000014,73,0,4.12,US,1729050039
338,the pas,53.8251,-101.2541,5.010000000000048,81,0,2.57,CA,1729050040
339,bodaybo,57.8506,114.1933,0.30000000000001137,64,100,6.17,RU,1729050041
340,choibalsan,48.0667,114.5,3.2100000000000364,49,16,3.57,MN,1729050043
341,bryne,58.7354,5.6477,11.080000000000041,62,0,5.14,NO,1729050044
342,cranleigh,51.1421,-0.4837,15.990000000000009,97,100,5.21,GB,1729050045
343,grand falls-windsor,48.9332,-55.6649,10.28000000000003,91,100,4.04,CA,1729050046
344,genhe,50.7833,121.5167,3.8000000000000114,39,78,4.41,CN,1729050047
345,labrador city,52.9463,-66.9114,0.10000000000002274,72,100,32.63,CA,1729050013
346,novaya igirma,57.1334,103.9112,-0.3499999999999659,91,100,6.0,RU,1729050049
347,zhaoyuan,37.3592,120.3964,20.04000000000002,35,0,1.84,CN,1729050050
348,whitecourt,54.1502,-115.6855,7.580000000000041,81,75,0.0,CA,1729050052
349,zboriv,49.6648,25.141,6.970000000000027,89,99,2.64,UA,1729050053
350,salacgriva,57.7536,24.3581,5.760000000000048,76,3,2.58,LV,1729050054
351,st. john's,47.5649,-52.7093,12.760000000000048,90,20,9.26,CA,1729049872
352,mil'kovo,55.6078,37.7956,7.57000000000005,63,100,2.39,RU,1729050056
353,tyazhinskiy,56.116,88.524,1.5,62,80,4.41,RU,1729050057
354,koronowo,53.3137,17.937,4.82000000000005,98,3,2.22,PL,1729050058
355,yuzhno-kurilsk,44.0306,145.8556,12.970000000000027,68,88,11.31,RU,1729050061
356,torghay,49.6339,63.4981,1.3600000000000136,65,0,5.02,KZ,1729050062
357,okhotsk,59.3833,143.3,-0.47999999999996135,77,12,7.85,RU,1729050063
358,dombarovskiy,50.7587,59.5386,1.170000000000016,47,0,1.45,RU,1729050064
359,bilicenii vechi,47.6564,28.0472,9.850000000000023,76,100,3.69,MD,1729050065
360,susuman,62.7833,148.1667,-5.75,92,100,1.96,RU,1729050066
361,troitsko-pechorsk,62.7084,56.1964,1.0500000000000114,72,100,3.65,RU,1729050067
362,klyuchi,52.2667,79.1667,2.7600000000000477,56,87,2.16,RU,1729050068
363,akureyri,65.6835,-18.0878,0.9600000000000364,93,75,3.09,IS,1729050070
364,surgut,61.25,73.4167,-2.8999999999999773,100,0,1.0,RU,1729050071
365,salekhard,66.53,66.6019,-2.3100000000000023,91,100,1.9,RU,1729050072
366,palmer,42.1584,-72.3287,5.150000000000034,74,20,5.14,US,1729049813
367,tazovsky,67.4667,78.7,-10.389999999999986,73,92,4.88,RU,1729050074
368,san agustin de valle fertil,-30.6335,-67.4682,20.03000000000003,80,86,6.63,AR,1729050075
369,howrah,22.5892,88.3103,29.0,84,75,4.63,IN,1729050076
370,murray bridge,-35.1167,139.2667,30.370000000000005,27,100,1.51,AU,1729050077
371,geraldton,-28.7667,114.6,17.230000000000018,94,75,4.12,AU,1729050079
372,varzea da palma,-17.5981,-44.7308,23.850000000000023,57,79,1.2,BR,1729050080
373,alice springs,-23.7,133.8833,38.75,15,20,8.23,AU,1729050081
374,northam,51.0333,-4.2167,17.010000000000048,98,100,3.81,GB,1729050082
375,port douglas,-16.4833,145.4667,26.310000000000002,72,35,5.77,AU,1729050083
376,chipinge,-20.1883,32.6236,11.939999999999998,84,100,2.15,ZW,1729050084
377,maxixe,-23.8597,35.3472,19.260000000000048,69,83,5.46,MZ,1729050085
378,carnarvon,-24.8667,113.6333,22.710000000000036,63,0,9.17,AU,1729050086
379,pilar,-9.5972,-35.9567,23.960000000000036,96,31,1.71,BR,1729050087
380,lagunas,-5.2269,-75.6753,24.180000000000007,73,24,1.41,PE,1729050089
381,kailua-kona,19.6406,-155.9956,28.49000000000001,81,40,3.09,US,1729049834
382,darwin,-12.4611,130.8418,30.99000000000001,68,75,3.6,AU,1729050091
383,manokwari,-0.8667,134.0833,26.010000000000048,86,99,6.26,ID,1729050092
384,sao tome,0.3365,6.7273,25.760000000000048,78,83,2.85,ST,1729050093
385,almeirim,-1.5233,-52.5817,25.07000000000005,76,20,1.41,BR,1729050094
386,simanggang,1.2472,111.4528,28.99000000000001,79,20,1.54,MY,1729050095
387,buka,40.8108,69.1986,7.650000000000034,57,0,2.31,UZ,1729050096
388,dhidhdhoo,6.8833,73.1,28.170000000000016,76,56,6.67,MV,1729050063
389,barra de santo antonio,-9.4047,-35.5072,23.379999999999995,88,81,2.57,BR,1729050099
390,tamandare,-8.7597,-35.1047,23.24000000000001,87,82,1.78,BR,1729050100
391,weno,7.4515,151.8468,32.97000000000003,70,75,3.6,FM,1729050101
392,salinas,36.6777,-121.6555,18.210000000000036,80,0,5.14,US,1729050102
393,barcelos,41.5388,-8.6151,17.720000000000027,98,100,1.25,PT,1729050103
394,camayenne,9.535,-13.6878,24.05000000000001,94,40,2.06,GN,1729050104
395,leava,-14.3,-178.1667,27.060000000000002,79,23,7.72,WF,1729050105
396,mahibadhoo,3.7833,72.9667,28.480000000000018,75,94,7.57,MV,1729050106
397,mili,6.0815,171.735,28.960000000000036,76,82,6.18,MH,1729050107
398,grand-bassam,5.2118,-3.7388,26.980000000000018,91,98,1.69,CI,1729050109
399,lompoc,34.6391,-120.4579,15.560000000000002,94,100,3.09,US,1729050110
400,nakhon thai,17.1006,100.8374,29.920000000000016,73,58,0.97,TH,1729050111
401,nueva gerona,21.8833,-82.8,27.57000000000005,74,16,0.89,CU,1729050112
402,guerrero negro,27.9769,-114.0611,18.79000000000002,81,0,5.59,MX,1729050113
403,mirialguda,16.8667,79.5833,28.200000000000045,78,99,2.65,IN,1729050114
404,tan-tan,28.438,-11.1032,19.620000000000005,90,58,1.56,MA,1729050115
405,tamanrasset,22.785,5.5228,20.950000000000045,28,40,1.03,DZ,1729050116
406,fort bragg,35.139,-79.006,12.110000000000014,74,40,3.6,US,1729050118
407,kangding,30.0513,101.9603,12.730000000000018,87,98,2.18,CN,1729050119
408,yatou,37.15,122.3833,20.02000000000004,35,6,3.01,CN,1729050120
409,mahdia,35.5047,11.0622,22.879999999999995,75,43,4.26,TN,1729050122
410,pul-e khumri,35.9446,68.7151,17.379999999999995,59,56,0.26,AF,1729050123
411,tobruk,32.0836,23.9764,21.600000000000023,74,0,2.11,LY,1729049876
412,chernomorskoye,45.5039,32.6997,12.510000000000048,87,100,9.77,UA,1729050125
413,le grazie di ancona,43.6008,13.5153,16.260000000000048,92,100,1.03,IT,1729050127
414,hurricane,37.1753,-113.2899,24.260000000000048,28,2,4.27,US,1729049879
415,westport,41.1415,-73.3579,8.510000000000048,73,0,3.6,US,1729050129
416,kyzyl-mazhalyk,51.1333,90.6,2.6200000000000045,65,99,0.65,RU,1729050130
417,plouzane,48.3833,-4.6167,17.100000000000023,100,100,3.6,FR,1729050131
418,youghal,51.95,-7.8506,14.120000000000005,96,98,2.93,IE,1729050132
419,rambervillers,48.3424,6.6358,12.550000000000011,91,100,2.01,FR,1729050133
420,shar'ya,58.3686,45.5144,3.32000000000005,95,100,2.54,RU,1729049850
421,bogatyye saby,56.0102,50.4483,4.0,43,100,3.83,RU,1729050136
422,brooks,50.5834,-111.8851,7.990000000000009,87,100,2.06,CA,1729050005
423,moose jaw,50.4001,-105.5344,15.140000000000043,38,85,6.17,CA,1729050138
424,bichura,50.5881,107.6022,3.420000000000016,48,18,3.0,RU,1729050139
425,onega,63.9061,38.1404,3.8000000000000114,92,100,7.59,RU,1729050140
426,kargasok,59.0556,80.8572,1.3600000000000136,82,76,3.0,RU,1729050141
427,kemijarvi,66.7131,27.4306,-0.47999999999996135,84,31,2.0,FI,1729050142
428,tura,25.5198,90.2201,27.58000000000004,61,0,1.15,IN,1729050143
429,chonchi,-42.6128,-73.8092,6.730000000000018,94,68,0.36,CL,1729049989
430,east london,-33.0153,27.9116,13.520000000000039,82,0,5.14,ZA,1729050146
431,viedma,-40.8135,-62.9967,11.930000000000007,87,100,4.3,AR,1729050033
432,alofi,-19.0595,-169.9187,27.939999999999998,57,20,4.63,NU,1729050148
433,santiago del estero,-27.7951,-64.2615,23.590000000000032,70,93,2.1,AR,1729050149
434,pisco,-13.7,-76.2167,18.03000000000003,82,100,3.09,PE,1729050150
435,sao geraldo do araguaia,-6.4006,-48.555,26.180000000000007,62,15,0.99,BR,1729050151
436,singaparna,-7.3515,108.111,26.930000000000007,55,100,1.15,ID,1729050152
437,pauini,-7.7136,-66.9764,27.170000000000016,58,65,0.5,BR,1729050153
438,pemalang,-6.9,109.3667,32.370000000000005,37,39,0.16,ID,1729050155
439,iskushuban,10.2837,50.23,27.57000000000005,58,59,1.85,SO,1729050156
440,garko,10.1751,11.1646,22.640000000000043,82,97,1.96,NG,1729050158
441,anna regina,7.2644,-58.5077,26.55000000000001,77,33,2.57,GY,1729050159
442,dakoro,14.5106,6.765,27.99000000000001,47,51,3.54,NE,1729050160
443,salahonda,2.1019,-78.7217,25.439999999999998,84,99,3.47,CO,1729050161
444,bentiu,9.2333,29.8333,21.680000000000007,94,100,1.71,SS,1729050162
445,birao,10.2849,22.7882,20.710000000000036,92,100,0.39,CF,1729050164
446,cabedelo,-6.9811,-34.8339,25.370000000000005,80,57,4.93,BR,1729050165
447,huangyan,28.6478,121.2594,24.77000000000004,82,100,1.38,CN,1729050166
448,longquan,24.6719,102.1613,17.950000000000045,91,98,2.12,CN,1729050167
449,siwa oasis,29.2041,25.5195,22.480000000000018,67,0,2.48,EG,1729050168
450,sabalgarh,26.25,77.4,28.840000000000032,33,36,2.17,IN,1729050169
451,chaiyaphum,15.75,102.0,31.260000000000048,58,56,4.21,TH,1729050170
452,gustavia,17.8962,-62.8498,28.950000000000045,77,21,5.36,BL,1729050171
453,ha'il,27.5219,41.6907,22.010000000000048,24,0,2.06,SA,1729050172
454,abbeville,50.1,1.8333,14.160000000000025,92,90,5.94,FR,1729050097
455,paraiso,9.8383,-83.8656,18.560000000000002,98,99,1.23,CR,1729050175
456,torrington,41.8007,-73.1212,4.4500000000000455,90,6,3.65,US,1729050176
457,trinidad,-14.8333,-64.9,28.80000000000001,40,8,1.76,BO,1729050177
458,bridgewater,44.3835,-64.5155,7.82000000000005,90,74,4.63,CA,1729050178
459,gloucester,51.8657,-2.2431,16.950000000000045,91,100,1.79,GB,1729050179
460,aral,40.5156,81.2636,20.53000000000003,21,97,2.54,CN,1729050180
461,agua prieta,31.3,-109.5667,20.439999999999998,24,0,1.54,MX,1729050181
462,vetluga,57.8557,45.781,2.900000000000034,94,99,2.35,RU,1729050183
463,copsa mica,46.1167,24.25,9.370000000000005,74,59,0.71,RO,1729050184
464,vernon,50.2581,-119.2691,12.640000000000043,94,100,0.51,CA,1729049902
465,chibougamau,49.9168,-74.3659,2.7900000000000205,70,100,7.2,CA,1729050186
466,mokhsogollokh,61.4681,128.9203,-0.47999999999996135,57,90,2.2,RU,1729050187
467,dauphin,51.1494,-100.0502,10.080000000000041,40,0,6.17,CA,1729050188
468,ust'-ilimsk,58.0006,102.6619,-0.45999999999997954,93,100,6.07,RU,1729050189
469,sao bento do sul,-26.2503,-49.3786,15.689999999999998,99,100,0.54,BR,1729050190
470,tadpatri,14.9167,78.0167,23.879999999999995,91,100,0.91,IN,1729050191
471,tofol,5.3248,163.0078,29.879999999999995,79,100,2.57,FM,1729050193
472,thinadhoo,0.5333,72.9333,28.49000000000001,74,37,6.25,MV,1729050194
473,uturoa,-16.7333,-151.4333,25.08000000000004,62,0,1.47,PF,1729050195
474,gamba,-2.65,10.0,24.150000000000034,85,100,3.18,GA,1729050196
475,yokadouma,3.5167,15.05,20.260000000000048,99,100,0.59,CM,1729050197
476,kaoma,-14.7833,24.8,16.870000000000005,94,37,3.02,ZM,1729050198
477,begoro,6.3871,-0.3774,20.180000000000007,98,91,1.12,GH,1729050199
478,malango,-2.9627,119.9001,20.840000000000032,97,96,0.37,ID,1729050200
479,lethem,3.3803,-59.7968,27.010000000000048,64,58,2.5,GY,1729050202
480,al mijlad,11.0333,27.7333,24.460000000000036,74,100,3.78,SD,1729050203
481,freetown,8.484,-13.2299,24.340000000000032,89,16,2.78,SL,1729050204
482,sinabang,2.4803,96.3801,30.02000000000004,65,94,2.41,ID,1729050205
483,tulagi,-9.0996,160.1476,28.170000000000016,73,73,1.99,SB,1729050206
484,i-n-salah,27.1935,2.4607,30.220000000000027,26,98,5.53,DZ,1729050207
485,playa del ingles,27.7567,-15.5787,23.0,96,21,0.53,ES,1729050190
486,birzebbuga,35.8258,14.5269,19.379999999999995,94,0,0.51,MT,1729050209
487,pacific grove,36.6177,-121.9166,17.58000000000004,93,0,0.45,US,1729050210
488,altai,46.3722,96.2583,3.8500000000000227,40,91,1.73,MN,1729050212
489,smithers,54.7804,-127.1743,9.180000000000007,66,100,2.06,CA,1729050095
490,amursk,50.2261,136.8994,6.230000000000018,40,27,6.02,RU,1729050214
491,seaside,36.6111,-121.8516,17.860000000000014,92,0,0.45,US,1729050215
492,studley,52.2703,-1.8919,15.340000000000032,98,100,1.79,GB,1729050216
493,erdenet,49.0333,104.0833,-0.5299999999999727,56,11,3.29,MN,1729050217
494,nizhneudinsk,54.9076,99.0276,3.8600000000000136,52,100,1.24,RU,1729050218
495,sosnogorsk,63.6023,53.8817,2.3100000000000023,94,100,4.23,RU,1729050220
496,fuglafjordur,62.244,-6.814,9.090000000000032,91,91,8.97,FO,1729050221
